City,Country,Latitude,Longitude
Aarhus,Denmark,56.1629,10.2039
Copenhagen,Denmark,55.6761,12.5683
Brande,Denmark,55.9427,9.1288
Hamburg,Germany,53.5488,9.9872
Amsterdam,Netherlands,52.3676,4.9041
London,United Kingdom,51.5072,0.1276
Mumbai,India,19.076,72.8777
Paris,France,48.8575,2.3514
Oslo,Norway,59.9139,10.7522
New York,USA,40.7128,74.006